{
  "plus_code": {
    "compound_code": "G9QM+GGM Berlin, Germany",
    "global_code": "9F4MG9QM+GGM"
  },
  "results": [
    {
      "address_components": [
        {
          "long_name": "1",
          "short_name": "1",
          "types": ["street_number"]
        },
        {
          "long_name": "Max-Urich-Straße",
          "short_name": "Max-Urich-Straße",
          "types": ["route"]
        },
        {
          "long_name": "Mitte",
          "short_name": "Mitte",
          "types": ["political", "sublocality", "sublocality_level_1"]
        },
        {
          "long_name": "Berlin",
          "short_name": "Berlin",
          "types": ["locality", "political"]
        },
        {
          "long_name": "Kreisfreie Stadt Berlin",
          "short_name": "Kreisfreie Stadt Berlin",
          "types": ["administrative_area_level_3", "political"]
        },
        {
          "long_name": "Berlin",
          "short_name": "BE",
          "types": ["administrative_area_level_1", "political"]
        },
        {
          "long_name": "Germany",
          "short_name": "DE",
          "types": ["country", "political"]
        },
        {
          "long_name": "13355",
          "short_name": "13355",
          "types": ["postal_code"]
        }
      ],
      "formatted_address": "Max-Urich-Straße 1, 13355 Berlin, Germany",
      "geometry": {
        "location": {
          "lat": 52.5388562,
          "lng": 13.3838105
        },
        "location_type": "ROOFTOP",
        "viewport": {
          "northeast": {
            "lat": 52.54020518029149,
            "lng": 13.3851594802915
          },
          "southwest": {
            "lat": 52.53750721970849,
            "lng": 13.3824615197085
          }
        }
      },
      "place_id": "ChIJwdjVuYxRqEcRmX3HOONUcU8",
      "plus_code": {
        "compound_code": "G9QM+GG Berlin, Germany",
        "global_code": "9F4MG9QM+GG"
      },
      "types": ["street_address"]
    },
    {
      "address_components": [
        {
          "long_name": "76",
          "short_name": "76",
          "types": ["street_number"]
        },
        {
          "long_name": "Ackerstraße",
          "short_name": "Ackerstraße",
          "types": ["route"]
        },
        {
          "long_name": "Mitte",
          "short_name": "Mitte",
          "types": ["political", "sublocality", "sublocality_level_1"]
        },
        {
          "long_name": "Berlin",
          "short_name": "Berlin",
          "types": ["locality", "political"]
        },
        {
          "long_name": "Kreisfreie Stadt Berlin",
          "short_name": "Kreisfreie Stadt Berlin",
          "types": ["administrative_area_level_3", "political"]
        },
        {
          "long_name": "Berlin",
          "short_name": "BE",
          "types": ["administrative_area_level_1", "political"]
        },
        {
          "long_name": "Germany",
          "short_name": "DE",
          "types": ["country", "political"]
        },
        {
          "long_name": "13355",
          "short_name": "13355",
          "types": ["postal_code"]
        }
      ],
      "formatted_address": "Ackerstraße 76, 13355 Berlin, Germany",
      "geometry": {
        "location": {
          "lat": 52.5387851,
          "lng": 13.3839232
        },
        "location_type": "ROOFTOP",
        "viewport": {
          "northeast": {
            "lat": 52.54013408029149,
            "lng": 13.3852721802915
          },
          "southwest": {
            "lat": 52.5374361197085,
            "lng": 13.3825742197085
          }
        }
      },
      "place_id": "ChIJrXGiNvNRqEcR39GcEwT8Yfo",
      "plus_code": {
        "compound_code": "G9QM+GH Berlin, Germany",
        "global_code": "9F4MG9QM+GH"
      },
      "types": ["establishment", "point_of_interest", "school", "university"]
    },
    {
      "address_components": [
        {
          "long_name": "Fachbereich Bionik und Evolutionstechnik",
          "short_name": "Fachbereich Bionik und Evolutionstechnik",
          "types": ["premise"]
        },
        {
          "long_name": "71-76",
          "short_name": "71-76",
          "types": ["street_number"]
        },
        {
          "long_name": "Ackerstraße",
          "short_name": "Ackerstraße",
          "types": ["route"]
        },
        {
          "long_name": "Mitte",
          "short_name": "Mitte",
          "types": ["political", "sublocality", "sublocality_level_1"]
        },
        {
          "long_name": "Berlin",
          "short_name": "Berlin",
          "types": ["locality", "political"]
        },
        {
          "long_name": "Kreisfreie Stadt Berlin",
          "short_name": "Kreisfreie Stadt Berlin",
          "types": ["administrative_area_level_3", "political"]
        },
        {
          "long_name": "Berlin",
          "short_name": "BE",
          "types": ["administrative_area_level_1", "political"]
        },
        {
          "long_name": "Germany",
          "short_name": "DE",
          "types": ["country", "political"]
        },
        {
          "long_name": "13355",
          "short_name": "13355",
          "types": ["postal_code"]
        }
      ],
      "formatted_address": "Fachbereich Bionik und Evolutionstechnik, Ackerstraße 71-76, 13355 Berlin, Germany",
      "geometry": {
        "bounds": {
          "northeast": {
            "lat": 52.53975939999999,
            "lng": 13.3857393
          },
          "southwest": {
            "lat": 52.5382336,
            "lng": 13.3837699
          }
        },
        "location": {
          "lat": 52.5389505,
          "lng": 13.3849476
        },
        "location_type": "ROOFTOP",
        "viewport": {
          "northeast": {
            "lat": 52.54034548029149,
            "lng": 13.3861035802915
          },
          "southwest": {
            "lat": 52.5376475197085,
            "lng": 13.3834056197085
          }
        }
      },
      "place_id": "ChIJQ0SwTPNRqEcR7ErGinEjXJQ",
      "types": ["premise"]
    },
    {
      "address_components": [
        {
          "long_name": "G9QM+GG",
          "short_name": "G9QM+GG",
          "types": ["plus_code"]
        },
        {
          "long_name": "Berlin",
          "short_name": "Berlin",
          "types": ["locality", "political"]
        },
        {
          "long_name": "Kreisfreie Stadt Berlin",
          "short_name": "Kreisfreie Stadt Berlin",
          "types": ["administrative_area_level_3", "political"]
        },
        {
          "long_name": "Berlin",
          "short_name": "BE",
          "types": ["administrative_area_level_1", "political"]
        },
        {
          "long_name": "Germany",
          "short_name": "DE",
          "types": ["country", "political"]
        }
      ],
      "formatted_address": "G9QM+GG Berlin, Germany",
      "geometry": {
        "bounds": {
          "northeast": {
            "lat": 52.538875,
            "lng": 13.383875
          },
          "southwest": {
            "lat": 52.53875,
            "lng": 13.38375
          }
        },
        "location": {
          "lat": 52.53885,
          "lng": 13.38381
        },
        "location_type": "GEOMETRIC_CENTER",
        "viewport": {
          "northeast": {
            "lat": 52.5401614802915,
            "lng": 13.3851614802915
          },
          "southwest": {
            "lat": 52.5374635197085,
            "lng": 13.3824635197085
          }
        }
      },
      "place_id": "GhIJjLlrCflESkARacGLvoLEKkA",
      "plus_code": {
        "compound_code": "G9QM+GG Berlin, Germany",
        "global_code": "9F4MG9QM+GG"
      },
      "types": ["plus_code"]
    },
    {
      "address_components": [
        {
          "long_name": "1",
          "short_name": "1",
          "types": ["street_number"]
        },
        {
          "long_name": "Max-Urich-Straße",
          "short_name": "Max-Urich-Straße",
          "types": ["route"]
        },
        {
          "long_name": "Mitte",
          "short_name": "Mitte",
          "types": ["political", "sublocality", "sublocality_level_1"]
        },
        {
          "long_name": "Berlin",
          "short_name": "Berlin",
          "types": ["locality", "political"]
        },
        {
          "long_name": "Kreisfreie Stadt Berlin",
          "short_name": "Kreisfreie Stadt Berlin",
          "types": ["administrative_area_level_3", "political"]
        },
        {
          "long_name": "Berlin",
          "short_name": "BE",
          "types": ["administrative_area_level_1", "political"]
        },
        {
          "long_name": "Germany",
          "short_name": "DE",
          "types": ["country", "political"]
        },
        {
          "long_name": "13355",
          "short_name": "13355",
          "types": ["postal_code"]
        }
      ],
      "formatted_address": "Max-Urich-Straße 1, 13355 Berlin, Germany",
      "geometry": {
        "bounds": {
          "northeast": {
            "lat": 52.5400314,
            "lng": 13.3849287
          },
          "southwest": {
            "lat": 52.5388129,
            "lng": 13.3835193
          }
        },
        "location": {
          "lat": 52.5394291,
          "lng": 13.3842086
        },
        "location_type": "GEOMETRIC_CENTER",
        "viewport": {
          "northeast": {
            "lat": 52.5407711302915,
            "lng": 13.3855729802915
          },
          "southwest": {
            "lat": 52.5380731697085,
            "lng": 13.3828750197085
          }
        }
      },
      "place_id": "ChIJl69KroxRqEcRCh5TjrtstQI",
      "types": ["route"]
    },
    {
      "address_components": [
        {
          "long_name": "Brunnenviertel",
          "short_name": "Brunnenviertel",
          "types": ["political", "sublocality", "sublocality_level_3"]
        },
        {
          "long_name": "Mitte",
          "short_name": "Mitte",
          "types": ["political", "sublocality", "sublocality_level_1"]
        },
        {
          "long_name": "Berlin",
          "short_name": "Berlin",
          "types": ["locality", "political"]
        },
        {
          "long_name": "Kreisfreie Stadt Berlin",
          "short_name": "Kreisfreie Stadt Berlin",
          "types": ["administrative_area_level_3", "political"]
        },
        {
          "long_name": "Berlin",
          "short_name": "BE",
          "types": ["administrative_area_level_1", "political"]
        },
        {
          "long_name": "Germany",
          "short_name": "DE",
          "types": ["country", "political"]
        }
      ],
      "formatted_address": "Brunnenviertel, Berlin, Germany",
      "geometry": {
        "bounds": {
          "northeast": {
            "lat": 52.54867710000001,
            "lng": 13.4037575
          },
          "southwest": {
            "lat": 52.5334799,
            "lng": 13.3798241
          }
        },
        "location": {
          "lat": 52.5405592,
          "lng": 13.3912967
        },
        "location_type": "APPROXIMATE",
        "viewport": {
          "northeast": {
            "lat": 52.54867710000001,
            "lng": 13.4037575
          },
          "southwest": {
            "lat": 52.5334799,
            "lng": 13.3798241
          }
        }
      },
      "place_id": "ChIJnfHpNPRRqEcRZNkKyyDCME4",
      "types": ["political", "sublocality", "sublocality_level_3"]
    },
    {
      "address_components": [
        {
          "long_name": "13355",
          "short_name": "13355",
          "types": ["postal_code"]
        },
        {
          "long_name": "Mitte",
          "short_name": "Mitte",
          "types": ["political", "sublocality", "sublocality_level_1"]
        },
        {
          "long_name": "Berlin",
          "short_name": "Berlin",
          "types": ["locality", "political"]
        },
        {
          "long_name": "Kreisfreie Stadt Berlin",
          "short_name": "Kreisfreie Stadt Berlin",
          "types": ["administrative_area_level_3", "political"]
        },
        {
          "long_name": "Berlin",
          "short_name": "BE",
          "types": ["administrative_area_level_1", "political"]
        },
        {
          "long_name": "Germany",
          "short_name": "DE",
          "types": ["country", "political"]
        }
      ],
      "formatted_address": "13355 Berlin, Germany",
      "geometry": {
        "bounds": {
          "northeast": {
            "lat": 52.5507715,
            "lng": 13.404501
          },
          "southwest": {
            "lat": 52.5330396,
            "lng": 13.3756146
          }
        },
        "location": {
          "lat": 52.5420552,
          "lng": 13.3900984
        },
        "location_type": "APPROXIMATE",
        "viewport": {
          "northeast": {
            "lat": 52.5507715,
            "lng": 13.404501
          },
          "southwest": {
            "lat": 52.5330396,
            "lng": 13.3756146
          }
        }
      },
      "place_id": "ChIJd66e__RRqEcRYNA9lUkgIRw",
      "types": ["postal_code"]
    },
    {
      "address_components": [
        {
          "long_name": "Gesundbrunnen",
          "short_name": "Gesundbrunnen",
          "types": ["political", "sublocality", "sublocality_level_2"]
        },
        {
          "long_name": "Mitte",
          "short_name": "Mitte",
          "types": ["political", "sublocality", "sublocality_level_1"]
        },
        {
          "long_name": "Berlin",
          "short_name": "Berlin",
          "types": ["locality", "political"]
        },
        {
          "long_name": "Kreisfreie Stadt Berlin",
          "short_name": "Kreisfreie Stadt Berlin",
          "types": ["administrative_area_level_3", "political"]
        },
        {
          "long_name": "Berlin",
          "short_name": "BE",
          "types": ["administrative_area_level_1", "political"]
        },
        {
          "long_name": "Germany",
          "short_name": "DE",
          "types": ["country", "political"]
        }
      ],
      "formatted_address": "Gesundbrunnen, Berlin, Germany",
      "geometry": {
        "bounds": {
          "northeast": {
            "lat": 52.5676639,
            "lng": 13.4035633
          },
          "southwest": {
            "lat": 52.5331322,
            "lng": 13.3658043
          }
        },
        "location": {
          "lat": 52.5523454,
          "lng": 13.381467
        },
        "location_type": "APPROXIMATE",
        "viewport": {
          "northeast": {
            "lat": 52.5676639,
            "lng": 13.4035633
          },
          "southwest": {
            "lat": 52.5331322,
            "lng": 13.3658043
          }
        }
      },
      "place_id": "ChIJW8YNHjtSqEcRoBHFVBY5skY",
      "types": ["political", "sublocality", "sublocality_level_2"]
    },
    {
      "address_components": [
        {
          "long_name": "Mitte",
          "short_name": "Mitte",
          "types": ["political", "sublocality", "sublocality_level_1"]
        },
        {
          "long_name": "Berlin",
          "short_name": "Berlin",
          "types": ["locality", "political"]
        },
        {
          "long_name": "Kreisfreie Stadt Berlin",
          "short_name": "Kreisfreie Stadt Berlin",
          "types": ["administrative_area_level_3", "political"]
        },
        {
          "long_name": "Berlin",
          "short_name": "BE",
          "types": ["administrative_area_level_1", "political"]
        },
        {
          "long_name": "Germany",
          "short_name": "DE",
          "types": ["country", "political"]
        }
      ],
      "formatted_address": "Mitte, Berlin, Germany",
      "geometry": {
        "bounds": {
          "northeast": {
            "lat": 52.5676639,
            "lng": 13.4293586
          },
          "southwest": {
            "lat": 52.4987314,
            "lng": 13.3015252
          }
        },
        "location": {
          "lat": 52.5372897,
          "lng": 13.3602743
        },
        "location_type": "APPROXIMATE",
        "viewport": {
          "northeast": {
            "lat": 52.5676639,
            "lng": 13.4293586
          },
          "southwest": {
            "lat": 52.4987314,
            "lng": 13.3015252
          }
        }
      },
      "place_id": "ChIJAUK8it1RqEcRwKtfW0YgIQU",
      "types": ["political", "sublocality", "sublocality_level_1"]
    },
    {
      "address_components": [
        {
          "long_name": "Berliner Innenstadt",
          "short_name": "Berliner Innenstadt",
          "types": ["neighborhood", "political"]
        },
        {
          "long_name": "Berlin",
          "short_name": "Berlin",
          "types": ["locality", "political"]
        },
        {
          "long_name": "Kreisfreie Stadt Berlin",
          "short_name": "Kreisfreie Stadt Berlin",
          "types": ["administrative_area_level_3", "political"]
        },
        {
          "long_name": "Berlin",
          "short_name": "BE",
          "types": ["administrative_area_level_1", "political"]
        },
        {
          "long_name": "Germany",
          "short_name": "DE",
          "types": ["country", "political"]
        }
      ],
      "formatted_address": "Berliner Innenstadt, Berlin, Germany",
      "geometry": {
        "bounds": {
          "northeast": {
            "lat": 52.5498029,
            "lng": 13.4758846
          },
          "southwest": {
            "lat": 52.4647295,
            "lng": 13.2819407
          }
        },
        "location": {
          "lat": 52.5183876,
          "lng": 13.407194
        },
        "location_type": "APPROXIMATE",
        "viewport": {
          "northeast": {
            "lat": 52.5498029,
            "lng": 13.4758846
          },
          "southwest": {
            "lat": 52.4647295,
            "lng": 13.2819407
          }
        }
      },
      "place_id": "ChIJ9RNPtDJQqEcRcGsFkvAGLKI",
      "types": ["neighborhood", "political"]
    },
    {
      "address_components": [
        {
          "long_name": "Berlin",
          "short_name": "Berlin",
          "types": ["locality", "political"]
        },
        {
          "long_name": "Kreisfreie Stadt Berlin",
          "short_name": "Kreisfreie Stadt Berlin",
          "types": ["administrative_area_level_3", "political"]
        },
        {
          "long_name": "Berlin",
          "short_name": "BE",
          "types": ["administrative_area_level_1", "political"]
        },
        {
          "long_name": "Germany",
          "short_name": "DE",
          "types": ["country", "political"]
        }
      ],
      "formatted_address": "Berlin, Germany",
      "geometry": {
        "bounds": {
          "northeast": {
            "lat": 52.6754542,
            "lng": 13.7611175
          },
          "southwest": {
            "lat": 52.338234,
            "lng": 13.088346
          }
        },
        "location": {
          "lat": 52.52000659999999,
          "lng": 13.404954
        },
        "location_type": "APPROXIMATE",
        "viewport": {
          "northeast": {
            "lat": 52.6754542,
            "lng": 13.7611175
          },
          "southwest": {
            "lat": 52.338234,
            "lng": 13.088346
          }
        }
      },
      "place_id": "ChIJAVkDPzdOqEcRcDteW0YgIQQ",
      "types": ["locality", "political"]
    },
    {
      "address_components": [
        {
          "long_name": "Berlin",
          "short_name": "BE",
          "types": ["administrative_area_level_1", "political"]
        },
        {
          "long_name": "Kreisfreie Stadt Berlin",
          "short_name": "Kreisfreie Stadt Berlin",
          "types": ["administrative_area_level_3", "political"]
        },
        {
          "long_name": "Germany",
          "short_name": "DE",
          "types": ["country", "political"]
        }
      ],
      "formatted_address": "Berlin, Germany",
      "geometry": {
        "bounds": {
          "northeast": {
            "lat": 52.6754542,
            "lng": 13.7611175
          },
          "southwest": {
            "lat": 52.338234,
            "lng": 13.088346
          }
        },
        "location": {
          "lat": 52.4938053,
          "lng": 13.4552919
        },
        "location_type": "APPROXIMATE",
        "viewport": {
          "northeast": {
            "lat": 52.6754542,
            "lng": 13.7611175
          },
          "southwest": {
            "lat": 52.338234,
            "lng": 13.088346
          }
        }
      },
      "place_id": "ChIJ8_KccStOqEcRhtFXjKWPuo0",
      "types": ["administrative_area_level_1", "political"]
    },
    {
      "address_components": [
        {
          "long_name": "Kreisfreie Stadt Berlin",
          "short_name": "Kreisfreie Stadt Berlin",
          "types": ["administrative_area_level_3", "political"]
        },
        {
          "long_name": "Berlin",
          "short_name": "Berlin",
          "types": ["locality", "political"]
        },
        {
          "long_name": "Berlin",
          "short_name": "BE",
          "types": ["administrative_area_level_1", "political"]
        },
        {
          "long_name": "Germany",
          "short_name": "DE",
          "types": ["country", "political"]
        }
      ],
      "formatted_address": "Kreisfreie Stadt Berlin, Berlin, Germany",
      "geometry": {
        "bounds": {
          "northeast": {
            "lat": 52.6753788,
            "lng": 13.7604692
          },
          "southwest": {
            "lat": 52.3382417,
            "lng": 13.0883331
          }
        },
        "location": {
          "lat": 52.5199913,
          "lng": 13.4050149
        },
        "location_type": "APPROXIMATE",
        "viewport": {
          "northeast": {
            "lat": 52.6753788,
            "lng": 13.7604692
          },
          "southwest": {
            "lat": 52.3382417,
            "lng": 13.0883331
          }
        }
      },
      "place_id": "ChIJ3Sm6ODdOqEcRrjh8PzSkRXI",
      "types": ["administrative_area_level_3", "political"]
    },
    {
      "address_components": [
        {
          "long_name": "Berlin",
          "short_name": "Berlin",
          "types": ["administrative_area_level_4", "political"]
        },
        {
          "long_name": "Berlin",
          "short_name": "Berlin",
          "types": ["locality", "political"]
        },
        {
          "long_name": "Kreisfreie Stadt Berlin",
          "short_name": "Kreisfreie Stadt Berlin",
          "types": ["administrative_area_level_3", "political"]
        },
        {
          "long_name": "Berlin",
          "short_name": "BE",
          "types": ["administrative_area_level_1", "political"]
        },
        {
          "long_name": "Germany",
          "short_name": "DE",
          "types": ["country", "political"]
        }
      ],
      "formatted_address": "Berlin, Germany",
      "geometry": {
        "bounds": {
          "northeast": {
            "lat": 52.6753788,
            "lng": 13.7604692
          },
          "southwest": {
            "lat": 52.3382417,
            "lng": 13.0883331
          }
        },
        "location": {
          "lat": 52.4938053,
          "lng": 13.4552919
        },
        "location_type": "APPROXIMATE",
        "viewport": {
          "northeast": {
            "lat": 52.6753788,
            "lng": 13.7604692
          },
          "southwest": {
            "lat": 52.3382417,
            "lng": 13.0883331
          }
        }
      },
      "place_id": "ChIJ3Sm6ODdOqEcR5M7ma-of5No",
      "types": ["administrative_area_level_4", "political"]
    },
    {
      "address_components": [
        {
          "long_name": "Germany",
          "short_name": "DE",
          "types": ["country", "political"]
        }
      ],
      "formatted_address": "Germany",
      "geometry": {
        "bounds": {
          "northeast": {
            "lat": 55.0815,
            "lng": 15.0418962
          },
          "southwest": {
            "lat": 47.2701115,
            "lng": 5.8663425
          }
        },
        "location": {
          "lat": 51.165691,
          "lng": 10.451526
        },
        "location_type": "APPROXIMATE",
        "viewport": {
          "northeast": {
            "lat": 55.0815,
            "lng": 15.0418962
          },
          "southwest": {
            "lat": 47.2701115,
            "lng": 5.8663425
          }
        }
      },
      "place_id": "ChIJa76xwh5ymkcRW-WRjmtd6HU",
      "types": ["country", "political"]
    }
  ],
  "status": "OK"
}
